City_ID,City,Lat,Lng,Max Temp,Humidity,Cloudiness,Wind Speed,Country,Date
0,Bredasdorp,-34.5322,20.0403,56.641999999999996,85,7,2.44,ZA,1682635894
1,Alice Springs,-23.7,133.8833,66.01999999999995,59,75,4.44,AU,1682635907
2,Puerto Ayora,-0.7393,-90.3518,88.03399999999999,88,65,2.24,EC,1682635861
3,Adamstown,-25.066,-130.1015,75.23599999999996,65,89,2.22,PN,1682636002
4,Yamada,39.4667,141.95,57.45199999999998,44,44,3.39,JP,1682636002
5,Arenápolis,-14.4503,-56.8461,75.41600000000001,87,10,0.6,BR,1682635937
6,West Island,-12.1568,96.8225,80.85199999999998,89,75,5.66,CC,1682635857
7,Novodvinsk,64.4165,40.8122,30.217999999999982,83,100,3.91,RU,1682636003
8,Saint Paul Harbor,57.79,-152.4072,42.58399999999999,75,100,5.66,US,1682636003
9,Port-aux-Français,-49.35,70.2167,42.70999999999998,68,84,12.3,TF,1682636004
10,El Granada,37.5027,-122.4694,93.18200000000002,67,40,5.14,US,1682636004
11,Blackmans Bay,-43.0167,147.3167,64.79600000000005,85,24,4.33,AU,1682636004
12,Santa Inês,-3.6667,-45.38,74.15600000000003,97,90,1.76,BR,1682636006
13,New Norfolk,-42.7826,147.0587,65.96600000000001,63,13,3.95,AU,1682636006
14,Opuwo,-18.0607,13.84,75.07400000000001,40,68,1.76,NA,1682636006
15,Zaozërsk,69.4005,32.4476,19.814000000000032,95,23,2.12,RU,1682636007
16,Nuuk,64.1835,-51.7216,36.48200000000001,80,0,7.72,GL,1682636007
17,Yellowknife,62.456,-114.3525,41.791999999999994,75,75,7.2,CA,1682635765
18,Kapuskasing,49.4169,-82.4331,39.55999999999998,87,100,6.69,CA,1682636008
19,Batticaloa,7.7102,81.6924,80.15,83,68,3.24,LK,1682636008
20,Tôlanaro,-25.0319,46.9987,71.94200000000001,88,75,3.09,MG,1682636008
21,Roxas,11.5853,122.7511,81.40999999999998,81,10,4.98,PH,1682636009
22,Ushuaia,-54.8,-68.3,42.69199999999999,65,40,8.23,AR,1682635720
23,Punta Arenas,-53.15,-70.9167,41.377999999999965,65,0,2.06,CL,1682635965
24,Lively,46.4334,-81.1498,47.588000000000044,54,100,2.71,CA,1682636011
25,Bilibino,68.0546,166.4372,20.425999999999988,66,10,0.5,RU,1682636011
26,Hermanus,-34.4187,19.2345,60.35,83,17,4.99,ZA,1682636012
27,Port Mathurin,-19.6833,63.4167,78.87200000000004,81,64,6.66,MU,1682636013
28,Waitangi,-43.9535,-176.5597,55.09399999999997,77,99,1.34,NZ,1682636013
29,Chowchilla,37.123,-120.2602,91.94000000000003,29,8,2.44,US,1682636014
30,Lázaro Cárdenas,17.9583,-102.2,83.28200000000001,54,100,4.81,MX,1682635859
31,Guarapari,-20.6667,-40.4975,76.15399999999995,89,40,1.35,BR,1682636015
32,Roboré,-18.3333,-59.75,77.28800000000004,78,98,1.61,BO,1682636015
33,Arraial do Cabo,-22.9661,-42.0278,75.434,88,20,3.6,BR,1682635818
34,Hawaiian Paradise Park,19.5933,-154.9731,82.184,72,0,6.17,US,1682636016
35,East London,-33.0153,27.9116,69.22400000000002,69,95,3.19,ZA,1682635936
36,Stanley,54.868,-1.6985,45.03200000000002,82,20,3.09,GB,1682636017
37,Sandnessjøen,66.0217,12.6316,37.92200000000004,89,82,0.89,NO,1682636017
38,Mogador,31.5125,-9.77,67.76600000000002,27,82,5.66,MA,1682636017
39,Isafjordur,66.0755,-23.124,29.390000000000022,65,13,3.12,IS,1682636018
40,Whitehorse,60.7161,-135.0538,45.64399999999997,43,75,6.71,CA,1682635907
41,Utrik,11.2278,169.8474,80.58200000000002,83,64,9.14,MH,1682635819
42,Albany,42.6001,-73.9662,59.70199999999998,47,45,0.79,US,1682635859
43,At-Bashi,41.1702,75.8106,40.87400000000001,57,24,3.32,KG,1682636019
44,Gilgit,35.9221,74.3087,52.934,61,20,0.12,PK,1682636019
45,Yatou,37.15,122.3833,52.86199999999995,79,83,5.85,CN,1682636019
46,Port Shepstone,-30.7414,30.455,72.17599999999999,79,82,6.18,ZA,1682636020
47,Vernon,50.2581,-119.2691,69.20600000000003,16,100,1.54,CA,1682636020
48,Atafu Village,-8.5421,-172.5159,84.21799999999999,72,41,7.09,TK,1682636020
49,Khanty-Mansiysk,61.0042,69.0019,35.977999999999966,100,40,2.0,RU,1682636020
50,Vilyuchinsk,52.9306,158.4028,39.74000000000002,66,100,12.98,RU,1682636021
51,Mahtomedi,45.0697,-92.9516,60.42200000000004,76,40,4.12,US,1682636021
52,Bethel,41.3712,-73.414,55.292,79,75,3.09,US,1682636022
53,Distrikt Brokopondo,4.75,-55.1667,77.50399999999996,87,100,3.82,SR,1682636022
54,Detroit Lakes,46.8172,-95.8453,55.72400000000002,47,75,5.14,US,1682635989
55,Grytviken,-54.2811,-36.5092,36.55399999999995,83,44,3.54,GS,1682636022
56,Edinburgh of the Seven Seas,-37.0676,-12.3116,62.167999999999985,78,81,5.33,SH,1682635860
57,El Alto,-4.2714,-81.2147,78.72799999999997,77,58,5.18,PE,1682636023
58,Polyarny,69.1989,33.4478,25.825999999999986,83,19,5.42,RU,1682636023
59,Hilo,19.7297,-155.09,84.542,73,0,6.17,US,1682635813
60,Tiksi,71.6872,128.8694,18.032000000000018,86,15,0.65,RU,1682636023
61,College,64.8569,-147.8028,45.193999999999974,46,40,3.09,US,1682636023
62,Nadi,-17.8,177.4167,79.06999999999996,94,75,6.17,FJ,1682636024
63,Birao,10.2849,22.7882,80.22200000000004,56,100,1.65,CF,1682636024
64,Lüderitz,-26.6481,15.1594,59.846000000000046,69,2,5.02,NA,1682636024
65,La Passe,45.5549,-0.8967,59.50399999999995,90,98,1.65,FR,1682636024
66,Kavaratti,10.5669,72.642,83.084,73,92,2.19,IN,1682636025
67,Usinsk,65.9939,57.5281,19.435999999999964,94,49,4.87,RU,1682636025
68,Kerikeri,-35.2268,173.9474,62.185999999999964,95,100,5.06,NZ,1682636025
69,Urangan,-25.3,152.9,73.45399999999995,67,12,6.18,AU,1682636025
70,Haiku-Pauwela,20.9219,-156.3051,76.44200000000001,82,75,5.66,US,1682636025
71,Vesëlyy,47.0934,40.7422,56.60600000000003,84,73,3.64,RU,1682636025
72,Wailua Homesteads,22.0669,-159.378,81.30199999999998,66,0,5.14,US,1682636026
73,Lerwick,60.1545,-1.1494,39.469999999999956,81,84,7.42,GB,1682635936
74,Invercargill,-46.4,168.35,53.29399999999997,82,51,0.89,NZ,1682635842
75,Dryden,49.7833,-92.7503,43.358000000000004,75,100,2.06,CA,1682636026
76,Kodinsk,58.6881,99.1844,28.417999999999985,92,74,1.21,RU,1682636027
77,Ulladulla,-35.35,150.4667,68.26999999999995,48,1,2.83,AU,1682636027
78,Kenai,60.5544,-151.2583,44.95999999999998,56,100,3.6,US,1682635922
79,Kutum,14.2,24.6667,72.842,52,79,2.85,SD,1682636027
80,El Nido,11.1858,119.3956,83.62400000000002,78,41,7.15,PH,1682636027
81,Nova Sintra,14.8667,-24.7167,68.09000000000003,79,17,9.51,CV,1682636027
82,As Suwayq,23.8494,57.4386,81.5,55,1,0.38,OM,1682636028
83,Iskateley,67.6803,53.1512,23.95399999999995,89,99,4.02,RU,1682635900
84,Ilulissat,69.2167,-51.1,30.488000000000046,86,20,1.54,GL,1682636028
85,San Juan,-31.5375,-68.5364,74.51600000000002,33,2,4.11,AR,1682636027
86,Srikakulam,18.3,83.9,80.85199999999998,66,4,1.79,IN,1682636029
87,Port Alfred,-33.5906,26.891,65.44399999999997,85,89,0.45,ZA,1682635856
88,Fort Bragg,35.139,-79.006,67.08200000000002,85,100,3.6,US,1682635876
89,Date,42.4681,140.8681,49.24399999999997,73,60,1.9,JP,1682636029
90,Yeppoon,-23.1333,150.7333,69.85399999999996,76,40,5.81,AU,1682636029
91,Gadzhiyevo,69.2551,33.3362,24.22400000000001,85,17,5.21,RU,1682636030
92,Anadyr,64.75,177.4833,16.574000000000012,78,0,4.0,RU,1682635867
93,Novaya Igirma,57.1334,103.9112,29.624000000000013,84,52,1.72,RU,1682636030
94,Beypazarı,40.1675,31.9211,46.11199999999995,84,97,3.74,TR,1682636030
95,Rebrikha,53.0733,82.3408,53.564000000000036,61,99,5.68,RU,1682636030
96,Ringkøbing,56.0901,8.244,33.29600000000005,67,18,1.71,DK,1682636031
97,Portland,45.5234,-122.6762,80.18599999999998,47,81,3.13,US,1682635983
98,Petrolina de Goiás,-16.095,-49.3381,72.96799999999999,90,10,0.26,BR,1682636031
99,Loango,-4.6719,11.8312,78.72799999999997,89,40,1.03,CG,1682636031
100,Lihue,21.9789,-159.3672,81.91400000000004,66,0,5.14,US,1682635859
101,Waat,51.1454,6.4958,54.446000000000055,64,100,1.54,DE,1682636031
102,Pingxiang,27.6167,113.85,66.18200000000002,97,100,0.42,CN,1682636032
103,Bonthe,7.5264,-12.505,80.726,77,62,3.27,SL,1682636032
104,Villa Ojo de Agua,-29.5,-63.6938,63.319999999999965,71,3,3.92,AR,1682636032
105,Mount Pearl,47.5166,-52.7813,35.6,89,75,5.14,CA,1682635885
106,Papatowai,-46.5619,169.4708,55.742,76,7,1.02,NZ,1682635844
107,Ribeira Grande,38.5167,-28.7,61.05199999999998,89,14,2.68,PT,1682635875
108,Ust'-Ilimsk,58.0006,102.6619,30.398000000000025,91,83,1.77,RU,1682636032
109,Pisco,-13.7,-76.2167,73.72400000000002,78,0,7.2,PE,1682635879
110,Fuglafjørður,62.244,-6.814,34.538000000000046,61,100,5.82,FO,1682636032
111,Bamboo Flat,11.7,92.7167,82.68800000000005,77,63,1.9,IN,1682636033
112,Puerto Ayacucho,5.6639,-67.6236,80.27599999999998,80,99,2.16,VE,1682636033
113,Howrah,22.5892,88.3103,77.26999999999995,83,40,2.57,IN,1682635894
114,Iqaluit,63.7506,-68.5145,30.2,100,100,5.66,CA,1682636033
115,Dhi as Sufal,13.8345,44.1147,65.75,62,75,0.56,YE,1682636033
116,Christchurch,-43.5333,172.6333,60.69199999999999,77,0,6.69,NZ,1682636034
117,Mehtar Lām,34.6714,70.2094,65.55199999999998,61,3,0.63,AF,1682636034
118,Kitami,43.8031,143.8908,54.806000000000026,51,14,4.84,JP,1682636034
119,Longyearbyen,78.2186,15.6401,26.708000000000006,93,100,6.17,SJ,1682635871
120,Argos Orestiko,40.4667,21.2667,39.90199999999997,69,9,2.05,GR,1682636034
121,Chonchi,-42.6128,-73.8092,53.38399999999999,98,100,2.56,CL,1682636034
122,Praia da Vitória,38.7333,-27.0667,64.92200000000004,77,40,9.46,PT,1682636035
123,Kingston,17.997,-76.7936,82.47200000000004,79,100,1.79,JM,1682635843
124,Aleksandrovsk-Sakhalinskiy,50.8975,142.1561,35.69000000000002,82,100,2.58,RU,1682636035
125,Kucha,41.7278,82.9364,56.93000000000004,18,0,2.68,CN,1682636035
126,Petropavlovsk-Kamchatskiy,53.0452,158.6483,38.26400000000003,45,40,2.0,RU,1682636035
127,Northam,51.0333,-4.2167,53.88800000000005,96,100,6.16,GB,1682636035
128,Kristiansund,63.1115,7.732,38.317999999999984,56,75,4.12,NO,1682636036
129,Sungai Penuh,-2.0833,101.3833,64.49000000000002,97,76,0.99,ID,1682636036
130,Lázaro Cárdenas,17.9583,-102.2,83.28200000000001,54,100,4.81,MX,1682636036
131,Saipan,15.1355,145.701,81.57200000000003,94,40,10.29,MP,1682636036
132,Kargasok,59.0556,80.8572,44.38399999999999,94,58,4.85,RU,1682635815
133,Taoudenni,22.6783,-3.9836,89.49199999999999,8,1,5.85,ML,1682636036
134,Beroroha,-21.6667,45.1667,68.64800000000002,75,0,1.67,MG,1682636036
135,Tura,25.5198,90.2201,74.35399999999996,49,72,0.69,IN,1682636037
136,Uturoa,-16.7333,-151.4333,82.54399999999998,76,62,3.26,PF,1682635889
137,Changde,29.0464,111.6783,64.79600000000005,89,100,0.85,CN,1682636037
138,Auki,-8.7676,160.7034,85.13599999999997,66,44,0.99,SB,1682636037
139,Zilair,52.2332,57.4392,52.772000000000034,71,100,3.06,RU,1682636037
140,Changuinola,9.4333,-82.5167,80.924,65,18,1.7,PA,1682636037
141,Serres,41.0856,23.5497,50.684,83,32,1.76,GR,1682636038
142,Chagny,46.9095,4.7519,62.924000000000014,87,100,1.98,FR,1682636038
143,Codrington,-38.2667,141.9667,53.977999999999966,83,98,6.81,AU,1682635927
144,Minas de Marcona,-15.2119,-75.1103,64.058,79,9,5.6,PE,1682636038
145,Enewetak,11.3474,162.3373,80.90600000000003,80,47,9.46,MH,1682635900
146,Lebu,-37.6167,-73.65,58.406000000000034,93,100,5.14,CL,1682636038
147,Hamilton,39.1834,-84.5333,67.71199999999996,43,0,5.66,US,1682635838
148,Port Elizabeth,-33.918,25.5701,65.37200000000004,92,40,3.09,ZA,1682636039
149,Kununurra,-15.7667,128.7333,73.65199999999999,94,19,0.0,AU,1682635905
150,Ust-Nera,64.5667,143.2,26.24000000000002,83,24,0.8,RU,1682636039
151,Ţibăneşti,46.9167,27.3333,40.98200000000001,73,69,2.99,RO,1682636039
152,Foumban,5.7291,10.9001,64.292,94,100,1.38,CM,1682636039
153,Minya,28.1099,30.7503,70.89800000000002,46,0,6.29,EG,1682636039
154,Cidade Velha,14.9167,-23.6167,72.33800000000005,73,20,7.72,CV,1682636039
155,Leesville,31.1435,-93.261,74.10199999999998,64,75,6.69,US,1682636040
156,Thompson,55.7435,-97.8558,41.432000000000016,48,20,5.66,CA,1682635859
157,Al Bayḑā’,32.7627,21.7551,49.11799999999998,84,1,5.93,LY,1682636040
158,Ardabil,38.2498,48.2933,40.81999999999996,93,0,2.06,IR,1682635809
159,Bayt al Faqih,14.5164,43.3245,85.92799999999997,56,38,1.84,YE,1682636040
160,Al Bardīyah,31.7561,25.0865,61.556000000000026,72,0,7.32,LY,1682636040
161,Puerto Natales,-51.7236,-72.4875,38.785999999999966,94,79,2.3,CL,1682636041
162,Yuzhno-Kurilsk,44.0306,145.8556,46.00399999999995,73,49,9.04,RU,1682636041
163,Ji’an,27.1172,114.9793,67.83800000000005,91,87,0.77,CN,1682636041
164,Nemuro,43.3236,145.575,44.725999999999985,70,26,4.68,JP,1682636042
165,Sitka,57.0531,-135.33,44.76199999999996,81,100,5.14,US,1682636042
166,Coquimbo,-29.9533,-71.3436,59.0,82,75,4.12,CL,1682635997
167,Pombas,17.1503,-25.0201,71.65399999999995,77,22,5.01,CV,1682636043
168,At Tāj,24.2049,23.2857,75.79399999999998,15,0,4.65,LY,1682636043
169,Afaahiti,-17.75,-149.2833,86.14399999999998,77,86,4.15,PF,1682636043
170,Garissa,-0.4536,39.6401,77.64800000000002,80,99,7.27,KE,1682636044
171,Naryan-Mar,67.6713,53.087,24.098000000000024,88,98,4.04,RU,1682636044
172,Udachny,66.4167,112.4,17.924000000000014,95,77,1.94,RU,1682635878
173,Gudermes,43.3569,46.1053,53.311999999999955,95,79,0.58,RU,1682636045
174,De Aar,-30.6497,24.0123,57.30800000000001,36,14,2.02,ZA,1682636045
175,Vorgashor,67.5833,63.95,20.89399999999997,93,57,6.05,RU,1682636045
176,Amga,60.8953,131.9608,32.99000000000002,91,100,0.72,RU,1682636046
177,Mount Isa,-20.7333,139.5,73.43599999999998,49,45,1.03,AU,1682636046
178,Port Saint John's,-31.6229,29.5448,70.51999999999995,86,56,3.21,ZA,1682635901
179,São Tomé,0.3365,6.7273,80.25800000000001,81,99,3.64,ST,1682636047
180,Margaret River,-33.95,115.0667,54.35600000000003,72,86,2.27,AU,1682636047
181,Kodīnar,20.7903,70.7031,77.16199999999995,86,3,3.59,IN,1682636048
182,Keflavik,64.0049,-22.5624,35.780000000000044,86,75,4.63,IS,1682635863
183,Bāgeshwar,29.85,79.7667,54.89600000000005,68,24,2.07,IN,1682636049
184,Constanța,44.1833,28.65,41.97200000000004,62,98,7.67,RO,1682636049
185,Whakatane,-37.9585,176.9854,61.15999999999998,75,100,1.79,NZ,1682636049
186,Trevelin,-43.0858,-71.4639,51.54800000000003,91,100,2.02,AR,1682636049
187,Naze,28.3667,129.4833,69.18800000000005,73,99,4.81,JP,1682636050
188,Nizhneudinsk,54.9076,99.0276,35.36600000000001,95,100,1.75,RU,1682635927
189,Aykhal,66.0,111.5,20.227999999999962,94,98,2.18,RU,1682635958
190,Rémire-Montjoly,4.9167,-52.2667,77.30600000000004,94,0,0.0,GF,1682636051
191,São Vicente,-23.9631,-46.3919,75.65,26,92,0.23,BR,1682636051
192,Ta`ū,-14.2336,-169.5144,82.976,70,100,4.31,AS,1682636051
193,Tazovsky,67.4667,78.7,19.30999999999998,93,100,3.66,RU,1682636052
194,Bayanhongor,46.7167,100.1167,18.301999999999975,51,14,1.12,MN,1682636052
195,Mabaruma,8.2,-59.7833,74.91199999999995,98,100,1.6,GY,1682636052
196,Uyuni,-20.4597,-66.825,49.71199999999996,20,0,1.52,BO,1682636053
197,George Town,5.4112,100.3354,80.79800000000003,94,20,1.54,MY,1682636050
198,Katsuura,35.1333,140.3,65.73200000000003,65,21,7.24,JP,1682635880
199,Happy Valley-Goose Bay,53.3168,-60.3315,50.57599999999999,46,75,3.09,CA,1682635937
200,Mil’kovo,55.6078,37.7956,56.06600000000001,86,44,2.62,RU,1682636054
201,Kurashiki,34.5833,133.7667,61.26799999999999,57,100,1.15,JP,1682636054
202,Odienné,9.51,-7.5692,87.53000000000004,38,95,3.13,CI,1682636055
203,Paciran,-6.8767,112.3761,78.40399999999995,89,90,2.31,ID,1682636055
204,Avarua,-21.2078,-159.775,79.12400000000002,69,100,3.09,CK,1682636055
205,Port Augusta,-32.5,137.7667,62.47400000000002,71,66,2.64,AU,1682636056
206,Mar del Plata,-38.0023,-57.5575,62.366000000000014,89,0,2.57,AR,1682636021
207,Horta,38.5333,-28.6333,59.288000000000046,89,21,2.24,PT,1682635992
208,Altamont,42.2068,-121.7372,78.04399999999998,18,0,1.54,US,1682636057
209,Bacchus Marsh,-37.6727,144.4383,66.27200000000005,68,61,0.89,AU,1682636057
210,Freetown,8.484,-13.2299,79.51999999999995,75,17,3.58,SL,1682636057
211,San Patricio,28.017,-97.5169,82.43599999999998,56,45,2.72,US,1682636036
212,Bikenibeu Village,1.3673,173.1241,86.234,74,20,5.14,KI,1682635981
213,General Acha,-37.377,-64.6043,67.64000000000001,45,59,2.61,AR,1682636058
214,Noyemberyan,41.1724,44.9992,52.196000000000055,77,72,2.53,AM,1682636058
215,Semnan,35.5729,53.3971,63.82400000000001,58,100,3.74,IR,1682636059
216,Port Lincoln,-34.7333,135.8667,60.35,51,87,7.09,AU,1682636059
217,Bundaberg,-24.85,152.35,72.48200000000003,83,4,1.34,AU,1682636060
218,Malango,-2.9627,119.9001,69.85399999999996,97,99,0.57,ID,1682636060
219,Banda Aceh,5.5577,95.3222,79.75399999999996,82,100,1.96,ID,1682635891
220,Bermeo,43.4209,-2.7215,64.976,92,92,1.44,ES,1682635927
221,San-Pédro,4.7485,-6.6363,80.18599999999998,86,66,2.76,CI,1682636061
222,Aasiaat,68.7098,-52.8699,23.288000000000046,94,18,1.34,GL,1682636061
223,Scheveningen,52.1046,4.2756,51.25999999999998,56,100,5.14,NL,1682636061
224,Natal,-5.795,-35.2094,83.31799999999998,78,20,3.6,BR,1682636062
225,Akureyri,65.6835,-18.0878,28.598000000000024,64,40,3.09,IS,1682636062
226,Qaqortoq,60.7167,-46.0333,35.41999999999996,80,8,2.0,GL,1682636062
227,Rancho Palos Verdes,33.7445,-118.387,80.69000000000003,81,20,7.72,US,1682635927
228,Moyamba,8.1667,-12.4333,78.38599999999997,77,77,1.86,SL,1682636063
229,Kavarna,43.4333,28.3333,44.54600000000005,68,31,6.93,BG,1682636063
230,Ried im Innkreis,48.2112,13.4886,48.109999999999985,89,83,1.89,AT,1682636064
231,Tadine,-21.55,167.8833,75.57799999999997,72,77,7.87,NC,1682635869
232,Poreč,45.2258,13.5939,49.71199999999996,66,23,2.41,HR,1682636064
233,River Cess,5.46,-9.5828,80.65399999999995,83,55,2.98,LR,1682636064
234,Gijang,35.2442,129.2139,50.0,65,94,2.83,KR,1682636065
235,Matoury,4.8483,-52.3317,77.234,94,0,0.0,GF,1682636065
236,Biryusinsk,55.9634,97.8235,36.71600000000001,99,100,2.2,RU,1682636066
237,Andergrove,-21.0833,149.1833,78.90800000000002,79,20,7.09,AU,1682636066
238,Ertis,53.3333,75.4572,59.59399999999997,44,96,5.7,KZ,1682636066
239,Marsh Harbour,26.5412,-77.0636,77.108,72,24,4.68,BS,1682636067
240,Tramore,52.1624,-7.1524,51.36799999999998,98,100,0.89,IE,1682636067
241,Port-Vila,-17.7338,168.3219,82.27400000000002,69,40,3.6,VU,1682635836
242,Pizarro,4.9533,-77.366,81.76999999999995,79,99,1.96,CO,1682636067
243,Nyurba,63.2842,118.3319,29.98399999999999,95,100,1.73,RU,1682636067
244,Sanctuary Point,-35.1114,150.629,72.59000000000003,49,0,2.59,AU,1682636068
245,Beledweyne,4.7358,45.2036,83.80399999999995,63,100,4.08,SO,1682636068
246,Bayganin,48.6947,55.8742,58.83800000000005,44,98,3.44,KZ,1682636069
247,Shingū,33.7333,135.9833,61.15999999999998,52,100,0.16,JP,1682636069
248,Susuman,62.7833,148.1667,25.466000000000008,81,94,1.58,RU,1682636069
249,Hanceville,34.0607,-86.7675,69.89000000000001,97,100,2.0,US,1682636032
250,Lincheng,19.9078,109.6858,75.434,91,8,5.23,CN,1682636070
251,Mount Gambier,-37.8333,140.7667,54.193999999999974,72,100,4.4,AU,1682636070
252,Tazacorte,28.629,-17.9293,68.41400000000004,75,0,2.57,ES,1682636070
253,Badger,64.8,-147.5333,45.122000000000035,44,40,3.09,US,1682636071
254,Pandan,14.0453,124.1694,81.76999999999995,83,20,4.27,PH,1682636071
255,Adiaké,5.2863,-3.304,80.50999999999999,83,87,2.0,CI,1682636071
256,Suifenhe,44.4,131.1667,45.842,84,100,1.0,CN,1682636072
257,Klyuchi,52.2667,79.1667,56.58800000000005,54,72,4.19,RU,1682636072
258,Gassol,8.5333,10.4667,76.334,86,97,5.38,NG,1682636072
259,Zhaotong,27.3167,103.7167,55.292,83,97,2.19,CN,1682636072
260,Byron Bay,-28.65,153.6167,64.976,76,33,1.5,AU,1682635739
261,Karratha,-20.7377,116.8463,80.90600000000003,54,99,1.58,AU,1682636073
262,Sretensk,52.2453,117.7093,36.788000000000046,53,100,4.31,RU,1682636074
263,Kogalym,62.2654,74.4791,35.041999999999994,100,100,4.69,RU,1682636074
264,Hauterive,46.0901,3.4459,58.225999999999985,94,92,1.89,FR,1682636074
265,Sinabang,2.4803,96.3801,79.808,84,100,0.63,ID,1682636075
266,Bairnsdale,-37.8333,147.6167,72.40999999999998,48,78,3.81,AU,1682636075
267,Bardai,11.65,7.2333,75.41600000000001,72,100,8.64,NG,1682636075
268,Newman,37.3138,-121.0208,92.01199999999996,25,9,1.34,US,1682635887
269,Shimoda,34.6667,138.95,68.37799999999996,68,62,4.32,JP,1682636076
270,Koné,-21.0595,164.8658,76.76600000000002,70,61,3.93,NC,1682636076
271,Mugia,43.1041,-9.2179,59.432000000000016,75,100,1.23,ES,1682636077
272,San Agustín de Valle Fértil,-30.6335,-67.4682,68.21600000000001,51,1,1.83,AR,1682636077
273,Camaná,-16.6228,-72.7111,70.08800000000005,85,60,2.74,PE,1682636077
274,Oxapampa,-10.5775,-75.4017,61.82599999999999,97,51,0.51,PE,1682636078
275,Talnakh,69.4865,88.3972,9.517999999999983,96,90,1.4,RU,1682636078
276,Alto Paraná,-23.1289,-52.3189,64.25600000000003,83,4,2.47,BR,1682635817
277,Lamu,-2.2717,40.902,75.68599999999998,86,99,8.07,KE,1682636061
278,Aswān,24.0934,32.907,80.16799999999998,11,0,3.09,EG,1682636078
279,Santa Vitória do Palmar,-33.5189,-53.3681,61.483999999999995,90,1,2.88,BR,1682636079
280,Jamestown,42.097,-79.2353,60.70999999999998,38,0,4.12,US,1682636079
281,Margate,51.3813,1.3862,50.161999999999956,81,100,2.68,GB,1682636080
282,Pasni,25.2631,63.471,78.83599999999997,78,80,2.82,PK,1682636080
283,Grodków,50.6984,17.3845,38.408,86,66,1.35,PL,1682636080
284,Mislīyah,17.4599,42.5572,85.69399999999997,61,36,1.21,SA,1682636081
285,Derzhavīnsk,51.1,66.3167,60.25999999999998,41,100,4.16,KZ,1682636081
286,Amuñgan,15.3652,119.9582,81.392,68,24,1.45,PH,1682636081
287,Altai,46.3722,96.2583,20.785999999999966,41,10,2.26,MN,1682636081
288,Al Jawf,29.5,38.75,70.57400000000001,22,37,9.69,SA,1682636082
289,Nasiriyah,31.0521,46.261,80.15,18,0,0.7,IQ,1682636082
290,Ulety,51.3572,112.4849,35.67200000000004,73,92,1.25,RU,1682636082
291,Al Qūşīyah,27.4402,30.8184,79.34000000000003,40,0,4.75,EG,1682636082
292,Kailua-Kona,19.6406,-155.9956,80.834,83,40,3.6,US,1682635879
293,Ponta Delgada,37.7333,-25.6667,63.59000000000002,94,20,6.17,PT,1682636083
294,Vanimo,-2.6741,141.3028,82.02200000000005,80,84,1.21,PG,1682636083
295,Kiunga,-6.1219,141.2906,78.06199999999995,94,84,1.21,PG,1682636083
296,Marsá Maţrūḩ,31.3525,27.2453,63.067999999999984,67,0,4.63,EG,1682636084
297,Arawa,-6.2132,155.5367,86.558,68,21,1.52,PG,1682636084
298,Colares,38.7992,-9.4469,71.05999999999997,49,86,5.85,PT,1682636084
299,Fort St. John,56.2499,-120.8529,55.561999999999955,30,75,9.77,CA,1682636084
300,Prince Rupert,54.3161,-130.3201,52.15999999999998,59,40,4.12,CA,1682636084
301,Las Khorey,11.1595,48.1967,85.26199999999996,71,99,1.54,SO,1682636084
302,Papao,-17.75,-149.55,87.74600000000005,74,80,2.65,PF,1682636084
303,Merizo Village,13.2658,144.6691,83.24600000000005,89,15,8.67,GU,1682636085
304,Gelibolu,40.4103,26.6708,44.725999999999985,79,75,3.41,TR,1682636085
305,Oulainen,64.2667,24.8,35.07799999999996,100,100,2.23,FI,1682636085
306,Chernyshevsk,52.5243,117.0174,36.68000000000004,46,24,6.05,RU,1682635940
307,Paramonga,-10.6667,-77.8333,75.59600000000006,80,46,4.36,PE,1682636085
308,Weno,7.4515,151.8468,79.01600000000002,89,100,1.54,FM,1682636085
309,Trzebiatów,54.0615,15.2648,38.11999999999996,79,10,3.88,PL,1682636086
310,Chamdo,31.1667,97.2333,32.161999999999956,57,100,1.95,CN,1682636086
311,São Félix do Xingu,-6.6447,-51.995,74.55199999999998,91,100,0.77,BR,1682636086
312,Manokwari,-0.8667,134.0833,81.608,75,100,0.53,ID,1682636086
313,Astorga,-23.2325,-51.6656,68.50399999999996,87,1,1.55,BR,1682636086
314,Magadan,59.5667,150.8,33.58399999999999,71,2,4.35,RU,1682636086
315,Masterton,-40.9597,175.6575,59.161999999999956,70,21,1.14,NZ,1682636087
316,Sarangani,5.4033,125.4636,83.76799999999999,76,96,8.97,PH,1682636087
317,Tralee,52.2704,-9.7026,49.17200000000004,95,81,1.7,IE,1682635931
318,Dunedin,-45.8742,170.5036,56.82200000000004,59,1,0.96,NZ,1682636087
319,Klaksvík,62.2266,-6.589,34.98800000000004,58,100,6.44,FO,1682636087
320,Santa Ana,33.7456,-117.8678,90.98599999999996,60,40,4.63,US,1682636087
321,Nema,57.5067,50.5011,46.72400000000001,98,15,2.37,RU,1682636087
322,Olonkinbyen,70.9221,-8.7187,29.174000000000014,95,100,10.8,SJ,1682636088
323,Timmins,48.4669,-81.3331,42.89000000000002,70,100,6.69,CA,1682636088
324,Iron River,46.0927,-88.6423,60.02599999999999,90,100,1.11,US,1682636088
325,Mermoz Boabab,14.7065,-17.4758,70.62799999999996,94,0,4.12,SN,1682636088
326,Zemio,5.0314,25.1361,70.484,88,89,0.26,CF,1682636088
327,Shagonar,51.5333,92.8,37.70600000000003,58,100,1.05,RU,1682636088
328,Dhaka,23.7104,90.4074,73.65199999999999,68,20,2.06,BD,1682636089
329,Yanbu,24.0891,38.0637,75.50600000000003,64,0,2.06,SA,1682636089
330,Cabo San Lucas,22.8909,-109.9124,83.87599999999999,58,0,5.3,MX,1682636055
331,Umm Kaddadah,13.6017,26.6876,84.39800000000002,37,95,1.68,SD,1682636089
332,Alofi,-19.0595,-169.9187,80.76199999999996,89,75,3.6,NU,1682636090
333,Nadym,65.5333,72.5167,22.801999999999975,94,100,9.3,RU,1682636090
334,Ghanzi,-21.5667,21.7833,73.11199999999997,33,54,2.21,BW,1682636090
335,Karungdong,5.8844,121.263,83.01199999999996,73,88,1.45,PH,1682636090
336,Callao,-12.0667,-77.15,78.98000000000005,69,75,6.17,PE,1682636091
337,Ixtapa,20.7,-105.2,81.5,73,4,2.24,MX,1682636091
338,Esim,4.8699,-2.2405,78.87200000000004,85,99,3.37,GH,1682635956
339,Puerto El Triunfo,13.2833,-88.55,90.734,69,100,3.04,SV,1682636091
340,Vilyuysk,63.7553,121.6247,31.36999999999996,87,100,2.28,RU,1682635921
341,Gyumri,40.7942,43.8453,40.891999999999996,87,20,2.57,AM,1682636091
342,Nova Viçosa,-17.8919,-39.3719,77.75600000000003,83,1,5.03,BR,1682635935
343,Puerto Aisén,-45.4,-72.7,46.99399999999997,98,99,0.23,CL,1682636092
344,Porto-Novo,6.4965,2.6036,80.69000000000003,80,100,2.99,BJ,1682636092
345,Sheringham,52.9408,1.2093,47.461999999999954,87,100,10.2,GB,1682636092
346,Walvis Bay,-22.9575,14.5053,59.359999999999985,64,1,4.87,NA,1682635889
347,Reggane,26.7158,0.1714,86.97200000000004,8,0,5.94,DZ,1682635875
348,Muisne,0.6,-80.0333,81.64399999999998,79,56,2.22,EC,1682635909
349,Qarqīn,37.4185,66.0436,68.576,32,0,3.19,AF,1682636092
350,Homer,59.6425,-151.5483,47.317999999999984,66,0,4.63,US,1682636092
351,Cidreira,-30.1811,-50.2056,65.22799999999997,78,1,2.71,BR,1682636093
352,Dudinka,69.4058,86.1778,-0.5259999999999891,100,99,1.16,RU,1682636093
353,Awjilah,29.1081,21.2869,66.77599999999998,40,0,6.06,LY,1682636093
354,Frontera,26.9333,-101.45,86.59399999999997,33,0,1.34,MX,1682636093
355,Qarqaraly,49.4058,75.4742,53.25800000000001,33,35,2.35,KZ,1682636093
356,Dalandzadgad,43.5708,104.425,27.625999999999987,48,59,11.24,MN,1682636093
357,Togur,58.3631,82.8265,44.79800000000002,92,86,4.18,RU,1682636094
358,Laguna,38.421,-121.4238,92.55199999999998,24,0,2.57,US,1682636094
359,Puerto Baquerizo Moreno,-0.9,-89.6,83.65999999999998,74,20,3.09,EC,1682636094
360,Barra de Santo Antônio,-9.4047,-35.5072,78.35,85,73,3.05,BR,1682636094
361,Azhikkal,11.9,75.3667,78.90800000000002,84,100,1.6,IN,1682636094
362,Preston,53.7667,-2.7167,50.935999999999964,84,100,6.24,GB,1682635993
363,Fortuna,40.5982,-124.1573,71.20399999999995,68,10,1.34,US,1682636095
364,Sabang,5.8933,95.3214,82.99399999999997,72,100,1.75,ID,1682636095
365,Saint-Pierre,-21.3393,55.4781,70.84399999999997,88,100,2.57,RE,1682636095
366,Muriti,-1.9833,32.9167,72.93200000000002,74,99,2.24,TZ,1682636095
367,Ürümqi,43.801,87.6005,60.22400000000002,19,0,5.0,CN,1682636095
368,Conduaga,8.862,117.4893,81.06799999999998,79,96,1.08,PH,1682635908
369,Kushiro,42.975,144.3747,56.62400000000001,38,40,6.17,JP,1682635909
370,Kirakira,-10.4544,161.9205,84.18200000000002,74,11,1.4,SB,1682636096
371,Cherykaw,53.5692,31.3793,42.872000000000035,91,100,3.35,BY,1682636096
372,St. John's,47.5649,-52.7093,36.42799999999996,90,75,6.26,CA,1682635890
373,Vila do Maio,15.1333,-23.2167,72.66199999999995,80,52,6.88,CV,1682636096
374,Nizhnyaya Poyma,56.1622,97.1933,37.59800000000003,98,100,2.19,RU,1682636096
375,Şuhut,38.5311,30.5458,40.38800000000005,94,99,3.74,TR,1682636096
376,Laurel,39.0993,-76.8483,67.28000000000004,74,0,4.63,US,1682636096
377,Yulin,22.6333,110.15,72.89600000000004,93,71,2.96,CN,1682636097
378,Saladas,-28.2538,-58.6259,67.38800000000005,67,6,1.39,AR,1682636097
379,Carnarvon,-24.8667,113.6333,67.00999999999999,52,93,10.48,AU,1682636097
380,Forster,-32.1667,152.5167,68.64800000000002,84,11,3.71,AU,1682636097
381,Sterling,39.0062,-77.4286,69.25999999999999,66,75,5.14,US,1682635885
382,Tūkrah,32.5341,20.5791,60.49399999999997,66,0,6.5,LY,1682636097
383,Kapoeta,4.7717,33.5903,75.2,82,100,2.73,SS,1682636097
384,Argos,37.6333,22.7333,56.04800000000003,70,93,1.17,GR,1682635926
385,Sinan,34.8262,126.1086,52.17799999999997,85,88,5.31,KR,1682636098
386,Hinna,10.3043,11.4991,85.08200000000002,55,100,9.88,NG,1682636098
387,Assaré,-6.8744,-39.875,71.36600000000001,96,97,1.34,BR,1682636055
388,Alghero,40.5589,8.3181,57.55999999999998,94,0,0.51,IT,1682636098
389,Haimen,23.1935,116.6142,66.36199999999997,85,91,3.3,CN,1682636098
390,Strasbourg,48.5834,7.743,59.18000000000004,76,0,1.03,FR,1682635911
391,Āstāneh-ye Ashrafīyeh,37.2596,49.9444,62.79800000000003,92,3,0.33,IR,1682636099
392,Dwārka,22.2394,68.9678,79.826,74,3,4.22,IN,1682636099
393,Pokhara,28.2333,83.9833,67.04600000000005,36,8,2.87,NP,1682636099
394,Vorkuta,67.5,64.0,21.361999999999952,93,51,5.89,RU,1682635952
395,Chibougamau,49.9168,-74.3659,44.492,49,100,2.06,CA,1682636099
396,Kapaa,22.0752,-159.319,82.65199999999999,66,0,5.14,US,1682636099
397,Xicotepec de Juárez,20.3,-97.9667,78.92599999999999,67,95,1.68,MX,1682636099
398,Gurupá,-1.405,-51.64,74.49800000000002,98,100,1.4,BR,1682636100
399,Fada,9.5667,8.3,71.18599999999998,81,100,1.7,NG,1682636100
400,Xi'an,34.2583,108.9286,56.48000000000005,73,100,1.83,CN,1682636100
401,Tofol,5.3248,163.0078,80.65399999999995,89,100,1.54,FM,1682635867
402,Cologne,50.9333,6.95,55.219999999999956,61,0,2.57,DE,1682636100
403,Dhidhdhoo,6.8833,73.1,84.07400000000001,74,99,1.77,MV,1682636100
404,Xigazê,29.25,88.8833,37.075999999999986,47,31,1.42,CN,1682636101
405,Sochi,43.6,39.7303,57.55999999999998,78,100,2.53,RU,1682635991
406,Loíza,18.4313,-65.8802,82.66999999999996,79,40,3.09,PR,1682636101
407,Wewak,-3.5534,143.6268,82.49000000000002,79,98,1.75,PG,1682636102
408,Cockburn Town,21.4612,-71.1419,78.69200000000001,73,85,4.83,TC,1682636102
409,Constitución,-35.3333,-72.4167,57.57799999999996,90,100,2.11,CL,1682636103
410,Yolöten,37.2989,62.3597,67.65800000000002,11,2,1.92,TM,1682636104
411,Philadelphia,39.9523,-75.1638,61.17799999999997,71,75,5.14,US,1682636017
412,Usol'ye,59.4268,56.6808,32.9,80,97,5.11,RU,1682636104
413,Sélibaby,15.159,-12.1829,93.18200000000002,9,0,4.58,MR,1682636105
414,Priozersk,61.0393,30.1291,40.36999999999996,92,100,4.56,RU,1682636105
415,Kakata,6.53,-10.3517,79.95199999999997,95,9,0.76,LR,1682636105
416,Mufumbwe,-13.6833,24.8,57.38000000000004,71,45,2.02,ZM,1682636106
417,Rabo de Peixe,37.8,-25.5833,62.38399999999999,94,20,6.17,PT,1682636106
418,Tabālah,19.95,42.4,67.51400000000004,41,45,2.59,SA,1682636107
419,Lusambo,-4.9667,23.45,72.26600000000002,91,58,1.08,CD,1682636108
420,Fale old settlement,-9.3852,-171.2468,83.67799999999997,75,100,5.54,TK,1682636108
421,Port Douglas,-16.4833,145.4667,77.64800000000002,69,19,5.52,AU,1682635866
422,Mahanoro,-19.9,48.8,73.23800000000006,83,79,3.34,MG,1682636110
423,Kimbe,-5.5502,150.1429,85.35199999999998,73,18,0.27,PG,1682636110
424,Le Grazie di Ancona,43.6008,13.5153,55.52599999999999,60,64,1.03,IT,1682636110
425,Darasun,51.6667,114.0,33.63800000000005,48,6,1.43,RU,1682636111
426,Baharly,38.4362,57.4316,73.09399999999997,40,94,3.39,TM,1682636111
427,Vila Franca do Campo,37.7167,-25.4333,63.28399999999999,90,100,5.6,PT,1682636112
428,Tommot,58.9564,126.2925,31.424000000000014,84,70,0.72,RU,1682636112
429,Opp,31.2827,-86.2555,68.28800000000004,83,0,2.57,US,1682636112
430,Karaton,-6.3424,106.1045,74.51600000000002,95,90,0.51,ID,1682636113
431,Joshīmath,30.5667,79.5667,46.65199999999997,66,20,3.66,IN,1682636113
432,Grande Prairie,55.1667,-118.8027,59.45,23,75,11.83,CA,1682635896
433,Okulovka,58.4008,33.2908,43.088000000000044,94,100,3.33,RU,1682636113
434,Grantsville,40.5999,-112.4644,72.23000000000005,30,100,7.4,US,1682636114
435,Santo Antônio do Içá,-3.1022,-67.9397,76.17200000000004,94,72,1.1,BR,1682636114
436,Altay,47.8667,88.1167,43.088000000000044,41,63,3.24,CN,1682636114
437,São Pedro do Sul,-29.6206,-54.1789,63.51799999999999,73,31,1.58,BR,1682636115
438,Gemena,3.25,19.7667,72.85999999999999,81,60,0.08,CD,1682636115
439,Salahonda,2.1019,-78.7217,82.81400000000004,77,72,3.75,CO,1682636116
440,Ubari,26.5921,12.7805,77.01799999999999,15,0,3.49,LY,1682636116
441,El Jadida,33.2549,-8.506,69.61999999999996,67,99,2.55,MA,1682636116
442,Galle,6.0367,80.217,78.51199999999996,88,74,4.24,LK,1682636117
443,Prado,-17.3411,-39.2208,77.45,84,0,4.2,BR,1682635874
444,Tual,-5.6667,132.75,83.58800000000005,77,94,6.46,ID,1682636117
445,Flying Fish Cove,-10.4217,105.6791,80.99600000000005,82,100,7.87,CX,1682636118
446,Shar'ya,58.3686,45.5144,45.391999999999996,94,98,1.67,RU,1682636118
447,Suva,-18.1416,178.4415,85.74800000000002,74,40,3.09,FJ,1682636118
448,Gandi,12.9636,5.7434,90.57200000000003,30,82,4.48,NG,1682636119
449,Ancud,-41.8697,-73.8203,55.04000000000002,94,100,4.97,CL,1682636119
450,Bariloche,-41.1456,-71.3082,55.417999999999985,76,40,4.12,AR,1682636119
451,Blytheville,35.9273,-89.919,65.31799999999998,86,100,0.0,US,1682635899
452,Bay Roberts,47.5999,-53.2648,36.788000000000046,88,47,0.89,CA,1682636120
453,Sierra Grande,-41.606,-65.3557,62.167999999999985,36,59,0.45,AR,1682636120
454,Isangel,-19.55,169.2667,79.46600000000001,70,74,4.79,VU,1682635968
455,Eséka,3.65,10.7667,72.33800000000005,100,94,0.38,CM,1682636121
456,Ribeira Brava,32.65,-17.0667,68.26999999999995,57,22,0.85,PT,1682636121
457,Nueve de Julio,-35.4444,-60.8831,72.23000000000005,51,100,1.34,AR,1682636122
458,Mili,6.0815,171.735,82.99399999999997,77,86,7.66,MH,1682635861
459,Abra Pampa,-22.7205,-65.697,59.59399999999997,20,0,2.83,AR,1682636122
460,Labrador City,52.9463,-66.9114,51.98000000000005,46,20,4.12,CA,1682636123
461,Río Gallegos,-51.6226,-69.2181,48.524000000000015,61,75,5.14,AR,1682636123
462,Tomatlán,19.9333,-105.25,86.03599999999997,38,42,4.8,MX,1682636123
463,Olinda,-8.0089,-34.8553,82.4,18,20,1.54,BR,1682636124
464,Mehrān,33.1222,46.1646,77.03599999999997,23,2,2.47,IR,1682636124
465,Swift Current,50.2834,-107.8014,47.48000000000004,61,100,10.29,CA,1682635921
466,Boké,10.9409,-14.2967,76.69399999999997,75,87,1.96,GN,1682636125
467,Kudahuvadhoo,2.6708,72.8944,83.858,71,96,1.84,MV,1682636125
468,Canutama,-6.5339,-64.3831,78.33200000000002,83,93,1.05,BR,1682636054
469,Orchard Homes,46.8633,-114.0484,64.81400000000004,25,0,6.69,US,1682635879
470,Inderbor,48.55,51.7833,59.97200000000004,66,9,3.88,KZ,1682636126
471,Greymouth,-42.4667,171.2,57.83000000000004,64,7,0.44,NZ,1682636126
472,Yayva,59.3303,57.2641,41.45,79,97,4.9,RU,1682636126
473,Val-d'Or,48.1002,-77.7828,46.75999999999998,46,75,5.14,CA,1682635843
474,Buala,-8.145,159.5921,85.71199999999996,67,27,1.44,SB,1682636127
475,Acaraú,-2.8856,-40.12,76.118,89,100,2.33,BR,1682635843
476,Yelanskiy,56.8419,62.5014,54.40999999999998,69,9,4.69,RU,1682636127
477,Port Pirie,-33.1833,138.0167,62.34800000000003,77,44,4.89,AU,1682636127
478,Holualoa,19.6228,-155.9522,77.108,84,40,3.6,US,1682636034
479,Quellón,-43.1167,-73.6167,52.32200000000004,93,100,3.09,CL,1682636128
480,Vadsø,70.0744,29.7487,34.95199999999998,93,66,4.63,NO,1682635945
481,Tsiombe,-25.3,45.4833,69.33200000000002,87,0,4.24,MG,1682635907
482,Port Moresby,-9.4431,147.1797,80.29399999999998,89,40,1.54,PG,1682636129
483,Bonabeerie,4.0779,9.6759,77.234,100,40,1.03,CM,1682636129
484,Harstad,68.799,16.5293,42.89000000000002,92,100,3.58,NO,1682636129
485,Arteche,12.2645,125.4048,81.10399999999996,87,40,3.87,PH,1682636129
486,Okakarara,-20.5833,17.4333,72.68000000000004,34,75,0.73,NA,1682636130
487,Dārāb,28.7519,54.5444,61.682000000000016,64,44,1.91,IR,1682636130
488,La Manga del Mar Menor,37.6413,-0.7165,68.26999999999995,95,75,3.6,ES,1682636131
489,Lompoc,34.6391,-120.4579,84.05600000000004,78,75,3.13,US,1682636131
490,Oranjemund,-28.55,16.4333,57.2,91,6,2.65,NA,1682636131
491,Kanniyākumāri,8.0833,77.5667,82.058,77,100,3.08,IN,1682636133
492,Shima,24.4478,117.8111,66.48800000000006,83,10,0.49,CN,1682636133
493,Naha,26.2125,127.6811,71.78000000000004,78,75,2.57,JP,1682636104
494,Impfondo,1.6381,18.0667,73.34600000000006,88,63,1.22,CG,1682636133
495,Al Khārijah,25.4514,30.5464,75.91999999999996,23,0,3.0,EG,1682636134
496,Altamira,-3.2033,-52.2064,74.01199999999996,97,77,1.4,BR,1682636039
497,Nytva,57.9404,55.334,51.96199999999996,89,81,4.07,RU,1682636134
498,Wakkanai,45.4094,141.6739,45.57200000000004,75,77,3.41,JP,1682635892
499,Malakal,9.5334,31.6605,82.52599999999998,59,79,0.83,SS,1682636135
500,Oamaru,-45.0784,170.9801,55.65199999999997,83,2,5.91,NZ,1682636137
501,Dzhezkazgan,47.7833,67.7667,57.29000000000002,27,2,2.79,KZ,1682636137
502,Dakoro,14.5106,6.765,88.57400000000001,22,50,3.47,NE,1682635867
503,Ponte Nova,-20.4164,-42.9086,69.42200000000004,88,45,1.4,BR,1682636138
504,Illizi,26.4833,8.4667,84.27200000000005,18,93,3.85,DZ,1682636139
505,Punta Cardon,11.6581,-70.215,82.25600000000003,72,19,7.74,VE,1682636140
506,Puerto Deseado,-47.7503,-65.8938,52.73599999999997,47,40,5.14,AR,1682635931
507,Pangody,65.85,74.4859,21.65,94,100,7.77,RU,1682635935
508,Scalea,39.813,15.7956,59.684,65,70,2.12,IT,1682636142
509,Oak Hill,37.9723,-81.1487,59.57599999999999,80,100,4.38,US,1682636142
510,Trashi Yangtse,27.6116,91.498,53.690000000000026,86,98,1.03,BT,1682636142
511,Vilhena,-12.7406,-60.1458,75.68599999999998,83,75,3.6,BR,1682636143
512,Rome,43.2128,-75.4557,59.41400000000003,26,0,0.0,US,1682635979
513,Labytnangi,66.6572,66.4183,19.72400000000001,86,100,3.52,RU,1682636143
514,Nova Xavantina,-14.6667,-52.35,75.68599999999998,82,46,0.52,BR,1682636143
515,Khvānsār,33.2205,50.315,50.55800000000001,60,47,0.33,IR,1682636144
516,Kita,13.0349,-9.4895,86.45,9,18,2.13,ML,1682636144
517,Selfoss,63.9331,-20.9971,33.314000000000036,99,100,2.6,IS,1682636144
518,Ketchikan,55.3422,-131.6461,45.338000000000044,81,100,5.66,US,1682636144
519,Cheyyur,12.3495,80.003,83.15600000000003,78,24,2.48,IN,1682636145
520,Seryshevo,51.0933,128.3786,41.82799999999996,40,52,3.87,RU,1682636145
521,Sorochinsk,52.4338,53.1583,56.19199999999999,59,5,1.52,RU,1682636145
522,Kitimat,54.0524,-128.6534,48.84800000000003,85,100,0.78,CA,1682635856
523,Mikun',62.3547,50.0771,27.01400000000003,85,45,2.9,RU,1682636145
524,Edd,13.9297,41.6925,88.57400000000001,61,35,2.82,ER,1682636146
525,Bo`ka,40.8108,69.1986,63.5,46,26,0.33,UZ,1682636146
526,Zhangye,38.9342,100.4517,35.653999999999954,25,33,1.51,CN,1682636146
527,Al Kharj,24.155,47.3346,77.84600000000006,33,15,3.41,SA,1682635875
528,Hasaki,35.7333,140.8333,71.49199999999999,67,29,7.52,JP,1682636083
529,Great Bend,38.3645,-98.7648,62.311999999999955,60,40,4.63,US,1682636146
530,Kenora,49.8167,-94.4337,49.44199999999999,57,75,0.0,CA,1682636146
531,Rio Grande,-32.035,-52.0986,73.77799999999996,73,0,1.08,BR,1682636147
532,Shenjiamen,29.9576,122.298,62.13200000000002,95,88,3.87,CN,1682635917
533,Woodway,31.506,-97.205,74.33599999999997,52,20,3.6,US,1682636147
534,Bima,-8.4667,118.7167,78.20600000000003,91,84,0.49,ID,1682636147
535,Saint-Joseph,-21.3667,55.6167,69.74600000000005,81,43,4.26,RE,1682636147
536,La Foa,-21.7108,165.8276,75.12799999999996,72,63,5.82,NC,1682636147
537,General Conesa,-40.1,-64.4333,68.88200000000002,33,46,3.55,AR,1682636147
538,Shangqiu,34.45,115.65,61.358000000000004,72,100,1.86,CN,1682636148
539,Santana,-0.0583,-51.1817,82.85,83,40,4.12,BR,1682636148
540,Los Altos,37.3852,-122.1141,94.316,28,0,5.14,US,1682635862
541,Avanos,38.715,34.8467,48.596000000000046,85,78,1.67,TR,1682636148
542,Mizdah,31.4451,12.9801,64.23800000000006,45,1,3.85,LY,1682636148
543,Mozambique,-15.0342,40.7358,79.484,70,64,5.87,MZ,1682636148
544,Madaoua,14.073,5.96,89.34800000000003,26,78,3.06,NE,1682636149
545,Ishigaki,24.3448,124.1572,75.59600000000006,88,100,4.12,JP,1682636149
546,Maceió,-9.6658,-35.7353,78.51199999999996,94,40,1.54,BR,1682636002
547,Choibalsan,48.0667,114.5,35.780000000000044,78,81,8.15,MN,1682636149
548,Calera,33.1029,-86.7536,71.50999999999999,85,100,2.37,US,1682636149
549,Erenhot,43.6475,111.9767,37.688000000000045,26,61,4.79,CN,1682636149
550,Hassi Messaoud,31.6804,6.0729,86.12599999999999,12,0,2.06,DZ,1682636149
551,Guerrero Negro,27.9769,-114.0611,66.36199999999997,67,12,8.13,MX,1682636150
552,Champasak,14.75,106.0,75.29000000000002,84,84,1.06,LA,1682636150
553,Kandalaksha,67.162,32.4123,27.446000000000048,93,93,2.58,RU,1682636150
554,Khalkhāl,37.6189,48.5258,51.08000000000004,45,75,0.55,IR,1682636150
555,Avaré,-23.0986,-48.9258,62.94199999999999,93,19,0.95,BR,1682636150
556,Woodlake,37.4211,-77.6793,69.72799999999997,64,100,6.17,US,1682636151
557,Hadibu,12.65,54.0333,83.174,75,40,3.72,YE,1682636151
558,Amarante do Maranhão,-5.5667,-46.7422,73.66999999999996,95,100,1.43,BR,1682636151
559,Balyqshy,47.0667,51.8667,53.86999999999996,87,7,2.0,KZ,1682636151
560,Bodaybo,57.8506,114.1933,32.99000000000002,77,55,0.41,RU,1682636151
561,Summerside,46.3959,-63.7876,40.94600000000005,93,100,3.09,CA,1682636151
562,Norfolk,42.1668,-71.2495,55.940000000000026,83,100,3.09,US,1682636152
563,Safaga,26.7292,33.9365,79.44800000000004,36,0,2.52,EG,1682636152
564,Kharovsk,59.9642,40.1912,40.51400000000003,95,93,2.83,RU,1682636152
565,Alto Araguaia,-17.3147,-53.2153,69.25999999999999,90,27,1.6,BR,1682636152
566,Kertih,4.5141,103.4483,77.28800000000004,94,100,0.0,MY,1682636152
567,Hotan,37.0997,79.9269,53.906000000000034,48,53,2.94,CN,1682636152
568,Khandyga,62.6667,135.6,30.758000000000003,89,92,0.16,RU,1682636152
569,Sint Michiel Liber,12.15,-68.9833,82.49000000000002,78,20,6.17,CW,1682636153
570,Sur,22.5667,59.5289,81.23000000000005,64,17,1.71,OM,1682636153
571,Igarka,67.4667,86.5833,10.382000000000016,99,93,1.72,RU,1682636153
572,Boda,4.3189,17.4695,73.184,77,50,2.28,CF,1682636062
573,Santa Terezinha,-29.9002,-50.0904,65.60600000000002,77,7,3.16,BR,1682635896
574,São João da Barra,-21.6403,-41.0511,77.35999999999999,90,61,3.86,BR,1682636154
575,Sheridan,44.8333,-106.9173,43.44800000000002,86,100,11.32,US,1682636144
576,Chany,55.3121,76.7647,59.54000000000002,40,100,5.29,RU,1682636154
577,Oodweyne,9.4092,45.064,74.78599999999997,70,95,1.33,SO,1682636154
578,Lubang,13.8584,120.124,81.87799999999996,79,18,9.66,PH,1682635973
579,Camalú,30.85,-116.0667,66.12799999999996,69,10,4.25,MX,1682636154
